[
  {
    "location": "N17, Bambolim, Goa 403202",
    "phone": "0832 245 8727",
    "url": "https://www.google.com/search?q=Goa+Medical College & Hospital, Bambolim+Goa&rlz=1C1CHBF_enIN859IN859&oq=Goa+Medical College & Hospital, Bambolim+Goa&aqs=chrome..69i57j46i10i175i199j0i10l7.11711j0j15&sourceid=chrome&ie=UTF-8",
    "cordlat": "15.4643263",
    "cordlon": "73.8584025"
  },
  {
    "location": "Warkhandem, Ponda, Goa 403401",
    "phone": "0832 231 9202",
    "url": "https://www.google.com/search?q=Savaikar+Hospital, Ponda+Goa&rlz=1C1CHBF_enIN859IN859&oq=Savaikar+Hospital, Ponda+Goa&aqs=chrome..69i57j46i10i175i199j0i10l7.11711j0j15&sourceid=chrome&ie=UTF-8",
    "cordlat": "15.4032181",
    "cordlon": "74.0049443"
  },
  {
    "location": "Pajifond, Agakhan Street - Rua Da Saudades, Isidorio Baptista Rd, Next to Isadoro, Margao, Goa 403601",
    "phone": "0832 271 4141",
    "url": "https://www.google.com/search?q=Horizon+ICU Hospital, Margao+Goa&rlz=1C1CHBF_enIN859IN859&oq=Horizon+ICU Hospital, Margao+Goa&aqs=chrome..69i57j46i10i175i199j0i10l7.11711j0j15&sourceid=chrome&ie=UTF-8",
    "cordlat": "15.2735923",
    "cordlon": "73.9630284"
  },
  {
    "location": "Kurtarkar Nagari, Ponda, Goa 403401",
    "phone": "",
    "url": "https://www.google.com/search?q=Sub+District Hospital, Ponda+Goa&rlz=1C1CHBF_enIN859IN859&oq=Sub+District Hospital, Ponda+Goa&aqs=chrome..69i57j46i10i175i199j0i10l7.11711j0j15&sourceid=chrome&ie=UTF-8",
    "cordlat": "15.3930424",
    "cordlon": "74.0057194"
  },
  {
    "location": "High School, near St. Brittos, Dangui Colony, Mapusa, Goa 403507",
    "phone": "0832 226 3343",
    "url": "https://www.google.com/search?q=Mapusa+Clinic, Mapusa+Goa&rlz=1C1CHBF_enIN859IN859&oq=Mapusa+Clinic, Mapusa+Goa&aqs=chrome..69i57j46i10i175i199j0i10l7.11711j0j15&sourceid=chrome&ie=UTF-8",
    "cordlat": "15.5920059",
    "cordlon": "73.8121629"
  },
  {
    "location": "NH 66, Fatorda, Margao, Goa 403602",
    "phone": "",
    "url": "https://www.google.com/search?q=South+Goa District Hospital, Margao+Goa&rlz=1C1CHBF_enIN859IN859&oq=South+Goa District Hospital, Margao+Goa&aqs=chrome..69i57j46i10i175i199j0i10l7.11711j0j15&sourceid=chrome&ie=UTF-8",
    "cordlat": "15.2950132",
    "cordlon": "73.953641"
  },
  {
    "location": "Mapusa Jamatkhana Road, Peddem, Mapusa, Goa 403507",
    "phone": "",
    "url": "https://www.google.com/search?q=North+Goa District Hospital, Mapusa+Goa&rlz=1C1CHBF_enIN859IN859&oq=North+Goa District Hospital, Mapusa+Goa&aqs=chrome..69i57j46i10i175i199j0i10l7.11711j0j15&sourceid=chrome&ie=UTF-8",
    "cordlat": "15.5968924",
    "cordlon": "73.8201766"
  },
  {
    "location": "Plot No 132/1 (Part), Ella Village, Kadamba Plateau, Goa Velha, Goa 403402",
    "phone": "0832 246 7666",
    "url": "https://www.google.com/search?q=Healthway+Hospital, Goa velha+Goa&rlz=1C1CHBF_enIN859IN859&oq=Healthway+Hospital, Goa velha+Goa&aqs=chrome..69i57j46i10i175i199j0i10l7.11711j0j15&sourceid=chrome&ie=UTF-8",
    "cordlat": "15.4856164",
    "cordlon": "73.9111814"
  },
  {
    "location": "Chapel Road, next to Holy Spirit Church, Monte Hill, Margao, Goa 403601",
    "phone": "0832 270 5001",
    "url": "https://www.google.com/search?q=Aster+Hospital Pvt Ltd, Margao+Goa&rlz=1C1CHBF_enIN859IN859&oq=Aster+Hospital Pvt Ltd, Margao+Goa&aqs=chrome..69i57j46i10i175i199j0i10l7.11711j0j15&sourceid=chrome&ie=UTF-8",
    "cordlat": "15.2808348",
    "cordlon": "73.9614898"
  },
  {
    "location": "Duler Ground Rd, Karaswada, Mapusa, Goa 403507",
    "phone": "091122 46688",
    "url": "https://www.google.com/search?q=Vision+Hospital, Mapusa+Goa&rlz=1C1CHBF_enIN859IN859&oq=Vision+Hospital, Mapusa+Goa&aqs=chrome..69i57j46i10i175i199j0i10l7.11711j0j15&sourceid=chrome&ie=UTF-8",
    "cordlat": "15.6045829",
    "cordlon": "73.8203984"
  },
  {
    "location": "Las Palmas Housing Estate, Margao Bypass, Margao, Goa 403601",
    "phone": "0832 270 0707",
    "url": "https://www.google.com/search?q=Trimurti+General Hospital, Borda, Margao+Goa&rlz=1C1CHBF_enIN859IN859&oq=Trimurti+General Hospital, Borda, Margao+Goa&aqs=chrome..69i57j46i10i175i199j0i10l7.11711j0j15&sourceid=chrome&ie=UTF-8",
    "cordlat": "15.2866906",
    "cordlon": "73.9773997"
  },
  {
    "location": "Chinchinim, Goa 403715",
    "phone": "",
    "url": "https://www.google.com/search?q=Dr+Samuel Nursing Home (Nagzarkar Hospital), Chinchinim+Goa&rlz=1C1CHBF_enIN859IN859&oq=Dr+Samuel Nursing Home (Nagzarkar Hospital), Chinchinim+Goa&aqs=chrome..69i57j46i10i175i199j0i10l7.11711j0j15&sourceid=chrome&ie=UTF-8",
    "cordlat": "15.2129526",
    "cordlon": "73.975496"
  },
  {
    "location": "St Joaquim Road, near St. Joaquim Chapel, Borda, Margao, Goa 403601",
    "phone": "0832 270 0103",
    "url": "https://www.google.com/search?q=Mother+Care Hospital, Borda, Margao+Goa&rlz=1C1CHBF_enIN859IN859&oq=Mother+Care Hospital, Borda, Margao+Goa&aqs=chrome..69i57j46i10i175i199j0i10l7.11711j0j15&sourceid=chrome&ie=UTF-8",
    "cordlat": "15.2816838",
    "cordlon": "73.9640248"
  },
  {
    "location": "Mumbai - Goa Hwy, Dhargal, Dargalim, Goa 403513",
    "phone": "",
    "url": "https://www.google.com/search?q=Dr+Redkars Hospital, Pernem+Goa&rlz=1C1CHBF_enIN859IN859&oq=Dr+Redkars Hospital, Pernem+Goa&aqs=chrome..69i57j46i10i175i199j0i10l7.11711j0j15&sourceid=chrome&ie=UTF-8",
    "cordlat": "15.6875535",
    "cordlon": "73.8307475"
  },
  {
    "location": "Malbhat, Margao, Goa 403601",
    "phone": "0832 271 1014",
    "url": "https://www.google.com/search?q=Classic+Hospital, Malbhat, Margao+Goa&rlz=1C1CHBF_enIN859IN859&oq=Classic+Hospital, Malbhat, Margao+Goa&aqs=chrome..69i57j46i10i175i199j0i10l7.11711j0j15&sourceid=chrome&ie=UTF-8",
    "cordlat": "15.269592",
    "cordlon": "73.965776"
  },
  {
    "location": "Av. Conceição, Pajifond, Margao, Goa 403601",
    "phone": "",
    "url": "https://www.google.com/search?q=Borkar+Nursing, Margao+Goa&rlz=1C1CHBF_enIN859IN859&oq=Borkar+Nursing, Margao+Goa&aqs=chrome..69i57j46i10i175i199j0i10l7.11711j0j15&sourceid=chrome&ie=UTF-8",
    "cordlat": "15.2793136",
    "cordlon": "73.9577261"
  },
  {
    "location": "Panaji, Dr E Borges Rd, Dona Paula, Goa 403004",
    "phone": "1800 102 5555",
    "url": "https://www.google.com/search?q=Manipal+Hospital, Donapaula+Goa&rlz=1C1CHBF_enIN859IN859&oq=Manipal+Hospital, Donapaula+Goa&aqs=chrome..69i57j46i10i175i199j0i10l7.11711j0j15&sourceid=chrome&ie=UTF-8",
    "cordlat": "15.4600059",
    "cordlon": "73.813462"
  },
  {
    "location": "Mapusa - Duler - Camurlim Rd, Near S.P.G. Hall/Severina Gardens, Xelpem, Duler, Mapusa, Goa 403507",
    "phone": "0832 226 6666",
    "url": "https://www.google.com/search?q=Dr.+Kolwalkar's Galaxy Hospital, Mapusa+Goa&rlz=1C1CHBF_enIN859IN859&oq=Dr.+Kolwalkar's Galaxy Hospital, Mapusa+Goa&aqs=chrome..69i57j46i10i175i199j0i10l7.11711j0j15&sourceid=chrome&ie=UTF-8",
    "cordlat": "15.6059007",
    "cordlon": "73.8132884"
  },
  {
    "location": "Old Station Rd, near Carmelite Monastery, Malbhat, Margao, Goa 403601",
    "phone": "0832 672 8888",
    "url": "https://www.google.com/search?q=Victor+Hospital, Margao+Goa&rlz=1C1CHBF_enIN859IN859&oq=Victor+Hospital, Margao+Goa&aqs=chrome..69i57j46i10i175i199j0i10l7.11711j0j15&sourceid=chrome&ie=UTF-8",
    "cordlat": "15.2689598",
    "cordlon": "73.9663188"
  },
  {
    "location": "Aquem ,Margao, Goa( South ), Off Power House Road, Margao, Goa 403601",
    "phone": "0832 273 7722",
    "url": "https://www.google.com/search?q=Royal+Hospital, Aquem, Margao+Goa&rlz=1C1CHBF_enIN859IN859&oq=Royal+Hospital, Aquem, Margao+Goa&aqs=chrome..69i57j46i10i175i199j0i10l7.11711j0j15&sourceid=chrome&ie=UTF-8",
    "cordlat": "15.2708414",
    "cordlon": "73.9720919"
  },
  {
    "location": "Opp.B.P.S. Club, Behind Asro Housing Society, Pajifond, Margao, Goa 403601",
    "phone": "0832 272 5391",
    "url": "https://www.google.com/search?q=Grace+Instensive Cardiace  Care Centre, Pajifond, Margao+Goa&rlz=1C1CHBF_enIN859IN859&oq=Grace+Instensive Cardiace  Care Centre, Pajifond, Margao+Goa&aqs=chrome..69i57j46i10i175i199j0i10l7.11711j0j15&sourceid=chrome&ie=UTF-8",
    "cordlat": "15.2770035",
    "cordlon": "73.9604779"
  }
]